[
    {"name":"Agra Crockery House","address":"Pandit Motilal Nehru Road, Civil Lines, Agra 282004, Uttar Pradesh","district":"Agra","state":"Uttar Pradesh","pincode":"282004","latitude":"27.19976","longitude":"78.01784"},
    {"name":"Janta Crockery House","address":"5, Sanjay Place Road, Power Plant, Sanjay Place Block No 16 Agra, Sanjay Place, Agra 282002, Uttar Pradesh","district":"Agra","state":"Uttar Pradesh","pincode":"282002","latitude":"27.19798","longitude":"78.00778"},
    {"name":"Janta Crockery House","address":"Pandit Kali Charan Tiwari Road, Civil Lines, Agra 282001, Uttar Pradesh","district":"Agra","state":"Uttar Pradesh","pincode":"282001","latitude":"27.19369","longitude":"78.02302"},
    {"name":"Sai Bartan Bhandar","address":"Freeganj Road, Nagla Mahadev Crossing, Freeganj Agra, Gadhapura, Agra 282004, Uttar Pradesh","district":"Agra","state":"Uttar Pradesh","pincode":"282004","latitude":"27.19558","longitude":"78.01661"},
    {"name":"Aysha Kitchen Center","address":"Nala Road, Quarsi Bypass, Vikram Colony, Aligarh 202001, Uttar Pradesh","district":"Aligarh","state":"Uttar Pradesh","pincode":"202001","latitude":"27.89643","longitude":"78.07007"},
    {"name":"Raj Mumar And Brother","address":"Gt Road, Labor Chowk, New Bairahana, Bahrana, Prayagraj 211003, Uttar Pradesh","district":"Prayagraj","state":"Uttar Pradesh","pincode":"211003","latitude":"25.43924","longitude":"81.85943"},
    {"name":"B T Enterprises","address":"Gt Road, Labor Chowk, New Bairahana, Bahrana, Prayagraj 211003, Uttar Pradesh","district":"Prayagraj","state":"Uttar Pradesh","pincode":"211003","latitude":"25.43904","longitude":"81.85892"},
    {"name":"Arti Kitchen Centre","address":"NH931, Amethi 227405, Uttar Pradesh","district":"Amethi","state":"Uttar Pradesh","pincode":"227405","latitude":"26.15604","longitude":"81.80614"},
    {"name":"Sanjiv Home Appliances And Gift Centre","address":"NH931, Amethi 227405, Uttar Pradesh","district":"Amethi","state":"Uttar Pradesh","pincode":"227405","latitude":"26.15586","longitude":"81.80632"},
    {"name":"Shoeb Bartan Bhandar","address":"Noorpur Amroha Road, Kundan Model Inter College Area, Amroha 244221, Uttar Pradesh","district":"Amroha","state":"Uttar Pradesh","pincode":"244221","latitude":"28.89631","longitude":"78.46427"},
    {"name":"Babu Fancy Bartan Showroom","address":"Main Road, Budh Bazar, Amroha 244221, Uttar Pradesh","district":"Amroha","state":"Uttar Pradesh","pincode":"244221","latitude":"28.89658","longitude":"78.46718"},
    {"name":"Renuka Kitchen Shop","address":"T V Centre Road, Sudarshan Nagar, Aurangabad 431003, Maharashtra","district":"Aurangabad","state":"Maharashtra","pincode":"431003","latitude":"19.90241","longitude":"75.35251"},
    {"name":"Kanchan Kitchens","address":"Hudco Corner Road, Sudarshan Nagar, Aurangabad 431002, Maharashtra","district":"Aurangabad","state":"Maharashtra","pincode":"431002","latitude":"19.90153","longitude":"75.35389"},
    {"name":"Vijay Kitchen Shop","address":"T V Centre Road, Sudarshan Nagar, Aurangabad 431003, Maharashtra","district":"Aurangabad","state":"Maharashtra","pincode":"431003","latitude":"19.90246","longitude":"75.35261"},
    {"name":"Sant Guru Krupa Kitchens","address":"Ganesh Temple Road, Sudarshan Nagar, Aurangabad 431002, Maharashtra","district":"Aurangabad","state":"Maharashtra","pincode":"431002","latitude":"19.90212","longitude":"75.3537"},
    {"name":"Chandrakant Kitchens","address":"Hudco Corner Road, Sudarshan Nagar, Aurangabad 431002, Maharashtra","district":"Aurangabad","state":"Maharashtra","pincode":"431002","latitude":"19.90237","longitude":"75.35359"},
    {"name":"Mohini Kitchens","address":"Near Dr.Babasaheb Ambedkar Hall, T V Center Road, Hadco, Sudarshan Nagar, Aurangabad 431001, Maharashtra","district":"Aurangabad","state":"Maharashtra","pincode":"431001","latitude":"19.89886","longitude":"75.34783"},
    {"name":"Jean Kitchens","address":"Hudco Corner Road, Sudarshan Nagar, Aurangabad 431003, Maharashtra","district":"Aurangabad","state":"Maharashtra","pincode":"431003","latitude":"19.90392","longitude":"75.35277"},
    {"name":"Morden Crockery Store","address":"NH128C, Murali, Azamgarh 276001, Uttar Pradesh","district":"Azamgarh","state":"Uttar Pradesh","pincode":"276001","latitude":"26.07428","longitude":"83.18612"},
    {"name":"Welcome Traders","address":"Kote Takia Road, Murali, Azamgarh 276001, Uttar Pradesh","district":"Azamgarh","state":"Uttar Pradesh","pincode":"276001","latitude":"26.07118","longitude":"83.18625"},
    {"name":"Sk Crockery Centre","address":"SH-66, Murali, Azamgarh 276001, Uttar Pradesh","district":"Azamgarh","state":"Uttar Pradesh","pincode":"276001","latitude":"26.07102","longitude":"83.1852"},
    {"name":"Om Kitchen House","address":"NH730, Balrampur 271201, Uttar Pradesh","district":"Balrampur","state":"Uttar Pradesh","pincode":"271201","latitude":"27.43329","longitude":"82.17616"},
    {"name":"Baba Enterprises","address":"Sh26, Civil Lines, Balrampur 271201, Uttar Pradesh","district":"Balrampur","state":"Uttar Pradesh","pincode":"271201","latitude":"27.43002","longitude":"82.17461"},
    {"name":"S R Enterprise","address":"Gaighat Banka Road, Banka 813102, Bihar","district":"Banka","state":"Bihar","pincode":"813102","latitude":"24.88525","longitude":"86.92425"},
    {"name":"Gangour Multi Store","address":"Gaighat Banka Road, Banka 813102, Bihar","district":"Banka","state":"Bihar","pincode":"813102","latitude":"24.88563","longitude":"86.92891"},
    {"name":"Royal Home Appliance","address":"Mohanty Pada Main Road, Bargarh 768028, Odisha","district":"Bargarh","state":"Odisha","pincode":"768028","latitude":"21.33473","longitude":"83.61993"},
    {"name":"Kitchen House","address":"Main Road, Near Gd College, Nirala Nagar, Ratanpur, Begusarai 851101, Bihar","district":"Begusarai","state":"Bihar","pincode":"851101","latitude":"25.41733","longitude":"86.12583"},
    {"name":"Prince Glass House Kitchen Ware Showroom","address":"Main Road, Patel Chowk, Nirala Nagar, Ratanpur, Begusarai 851101, Bihar","district":"Begusarai","state":"Bihar","pincode":"851101","latitude":"25.41701","longitude":"86.1261"},
    {"name":"Shyam Kitchen House","address":"Rbss Sahay Road, Hanuman Mandir, Bhikhanpur, Shah Market Area, Bhagalpur 810004, Bihar","district":"Bhagalpur","state":"Bihar","pincode":"810004","latitude":"25.24684","longitude":"86.98762"},
    {"name":"Gudiya Kitchen House","address":"Rbss Sahay Road, Hanuman Mandir, Bhikhanpur, Shah Market Area, Bhagalpur 810004, Bihar","district":"Bhagalpur","state":"Bihar","pincode":"810004","latitude":"25.24632","longitude":"86.98668"},
    {"name":"Jakir Kitchen House","address":"Barahpura Main Road, Madina Masjid, Barahpura, Sikandarpur, Bhagalpur 812002, Bihar","district":"Bhagalpur","state":"Bihar","pincode":"812002","latitude":"25.2449","longitude":"87.00072"},
    {"name":"Nakul Enterprises","address":"Shri 108 Shiv Mahaveer Gayatri Temple, Kamal Nagar, Sikandarpur, Bhagalpur 812001, Bihar","district":"Bhagalpur","state":"Bihar","pincode":"812001","latitude":"25.23914","longitude":"86.99048"},
    {"name":"P K Kitchen Bartan Bhandar","address":"Gn Mukherjee Road, Hanuman Mandir, Bhikhanpur, Sikandarpur, Bhagalpur 812002, Bihar","district":"Bhagalpur","state":"Bihar","pincode":"812002","latitude":"25.24299","longitude":"86.98947"},
    {"name":"Mahalakshmi Kitchen Gallery","address":"Mahatma Gandhi Road, Warangal Central Prison Area, Warangal 506002, Telangana","district":"Warangal Urban","state":"Telangana","pincode":"506002","latitude":"17.99779","longitude":"79.58733"},
    {"name":"Nalanda Plastic House","address":"Alamganj Gali, Bara Dari, Bihar Sharif 803101, Bihar","district":"Nalanda","state":"Bihar","pincode":"803101","latitude":"25.197","longitude":"85.52223"},
    {"name":"Khanna Crockery & Gift Corner","address":"Vardhman Market, Sotiyan, Shambha Bazaar Area, Bijnor 246701, Uttar Pradesh","district":"Bijnor","state":"Uttar Pradesh","pincode":"246701","latitude":"29.36977","longitude":"78.13426"},
    {"name":"Muradabadi Kitchen House","address":"Sadar Bazar Road, Shambha Bazaar Area, Bijnor 246701, Uttar Pradesh","district":"Bijnor","state":"Uttar Pradesh","pincode":"246701","latitude":"29.37169","longitude":"78.13471"},
    {"name":"Imtiyaj Kitchen House","address":"Bazar Road, Shambha Bazaar Area, Bijnor 246701, Uttar Pradesh","district":"Bijnor","state":"Uttar Pradesh","pincode":"246701","latitude":"29.37082","longitude":"78.13438"},
    {"name":"M S Sirin Agencies","address":"Jalu Noorpur Road, Shambha Bazaar Area, Bijnor 246701, Uttar Pradesh","district":"Bijnor","state":"Uttar Pradesh","pincode":"246701","latitude":"29.37018","longitude":"78.13776"},
    {"name":"Home Care","address":"Bokaro Steel City Sector Iv, Sector 4, Bokaro 827004, Jharkhand","district":"Bokaro","state":"Jharkhand","pincode":"827004","latitude":"23.66615","longitude":"86.1445"},
    {"name":"New Fancy Steel House","address":"Saraswati Vidya Mandir, Bokaro Steel City Sector Iv, Sector 4, Bokaro 827004, Jharkhand","district":"Bokaro","state":"Jharkhand","pincode":"827004","latitude":"23.66442","longitude":"86.15329"},
    {"name":"Steel Palace","address":"Bank Of Baroda, Bokaro Steel City Sector Iv, Sector 4, Bokaro 827004, Jharkhand","district":"Bokaro","state":"Jharkhand","pincode":"827004","latitude":"23.66755","longitude":"86.14448"},
    {"name":"Baba Bartan Bhandar","address":"Purani Bazar Road, Chandauli Railways Station, Gautam Nagar, Kidwai Nagar, Chandauli 232104, Uttar Pradesh","district":"Chandauli","state":"Uttar Pradesh","pincode":"232104","latitude":"25.25996","longitude":"83.26582"},
    {"name":"Singh Kitchen Home","address":"Court, G T Road, Bichhiya Kala, Chandauli 232120, Uttar Pradesh","district":"Chandauli","state":"Uttar Pradesh","pincode":"232120","latitude":"25.2575","longitude":"83.26203"},
    {"name":"Ghar Grahasthi Kitchen House & Cloth","address":"Railway Crossing Sakaldiha Road Kahili Mod Chandauli, Sakaldiha Road, Dhanpur, Chandauli 232120, Uttar Pradesh","district":"Chandauli","state":"Uttar Pradesh","pincode":"232120","latitude":"25.26195","longitude":"83.26455"},
    {"name":"Bhola Baba Bartan Bhandar","address":"Railway Crossing, Daak Bangla Road, Dhanpur, Chandauli 232120, Uttar Pradesh","district":"Chandauli","state":"Uttar Pradesh","pincode":"232120","latitude":"25.26358","longitude":"83.265"},
    {"name":"Malati Enterprises","address":"Jhola Shahi Main Road, Saanta Sahi, Cuttack 753001, Odisha","district":"Cuttack","state":"Odisha","pincode":"753001","latitude":"20.46237","longitude":"85.8826"},
    {"name":"Prachi Gas House","address":"State Bank Of India, Darga Bazaar, Patnaik Colony, Cuttack 753001, Odisha","district":"Cuttack","state":"Odisha","pincode":"753001","latitude":"20.46972","longitude":"85.88735"},
    {"name":"Basant Trading Co","address":"Jhola Shahi Main Road, Tala Telenga Bazar, Cuttack 753009, Odisha","district":"Cuttack","state":"Odisha","pincode":"753009","latitude":"20.4637","longitude":"85.8741"},
    {"name":"Sagar Enterprises","address":"Station Road, Darbhanga Railway Station, Darbhanga 846004, Bihar","district":"Darbhanga","state":"Bihar","pincode":"846004","latitude":"26.15269","longitude":"85.90073"},
    {"name":"Shri Om Nutan Enterprises","address":"Station Road, Darbhanga Railway Station, Darbhanga 846004, Bihar","district":"Darbhanga","state":"Bihar","pincode":"846004","latitude":"26.15255","longitude":"85.90006"},
    {"name":"Vuwan Bartan Shop","address":"Nardiganj Road, Nawada 805110, Bihar","district":"Nawada","state":"Bihar","pincode":"805110","latitude":"24.88552","longitude":"85.53482"},
    {"name":"R K Enterprises","address":"Main Road, Bakshi Bandh Road Area, Dumka 814101, Jharkhand","district":"Dumka","state":"Jharkhand","pincode":"814101","latitude":"24.26786","longitude":"87.24841"},
    {"name":"Gourav Enterprises","address":"Main Road, Bakshi Bandh Road Area, Dumka 814101, Jharkhand","district":"Dumka","state":"Jharkhand","pincode":"814101","latitude":"24.26784","longitude":"87.2484"},
    {"name":"Muskan Store","address":"Bakshi Bandh Road Area, Dumka 814101, Jharkhand","district":"Dumka","state":"Jharkhand","pincode":"814101","latitude":"24.26746","longitude":"87.24843"},
    {"name":"Keshri Traders","address":"Bakshi Bandh Road Area, Dumka 814101, Jharkhand","district":"Dumka","state":"Jharkhand","pincode":"814101","latitude":"24.26823","longitude":"87.24824"},
    {"name":"Bajaj Enterprise","address":"Bakshi Bandh Road Area, Dumka 814101, Jharkhand","district":"Dumka","state":"Jharkhand","pincode":"814101","latitude":"24.26596","longitude":"87.24597"},
    {"name":"Manish Craft Center","address":"Lohia Road, Farrukhabad 209625, Uttar Pradesh","district":"Farrukhabad","state":"Uttar Pradesh","pincode":"209625","latitude":"27.39043","longitude":"79.58137"},
    {"name":"Grishti Rasoi Centre","address":"Nehru Road, Farrukhabad 209625, Uttar Pradesh","district":"Farrukhabad","state":"Uttar Pradesh","pincode":"209625","latitude":"27.38149","longitude":"79.59589"},
    {"name":"Divya Gas Chula Centre","address":"Thandi Sadak, Farrukhabad 209625, Uttar Pradesh","district":"Farrukhabad","state":"Uttar Pradesh","pincode":"209625","latitude":"27.387","longitude":"79.58176"},
    {"name":"Gupta Crockery Gift Centre","address":"Lal Darwaja Road, Farrukhabad 209625, Uttar Pradesh","district":"Farrukhabad","state":"Uttar Pradesh","pincode":"209625","latitude":"27.39018","longitude":"79.59406"},
    {"name":"Hafiz Ji Repairing Centre","address":"Nehru Road, Farrukhabad 209625, Uttar Pradesh","district":"Farrukhabad","state":"Uttar Pradesh","pincode":"209625","latitude":"27.38979","longitude":"79.58161"},
    {"name":"Sai Traders","address":"Farrukhabad Aligarh Road, Farrukhabad 209625, Uttar Pradesh","district":"Farrukhabad","state":"Uttar Pradesh","pincode":"209625","latitude":"27.38672","longitude":"79.58732"},
    {"name":"Agrawal Brash Wear","address":"Lohia Road, Farrukhabad 209625, Uttar Pradesh","district":"Farrukhabad","state":"Uttar Pradesh","pincode":"209625","latitude":"27.39162","longitude":"79.57984"},
    {"name":"Varanga Wear Bartan Bhandar","address":"Nehru Road, Farrukhabad 209625, Uttar Pradesh","district":"Farrukhabad","state":"Uttar Pradesh","pincode":"209625","latitude":"27.38892","longitude":"79.58425"},
    {"name":"R Cube Home Appliances","address":"Hariharganj Railway Bridge Road, Fatehpur 212601, Uttar Pradesh","district":"Fatehpur","state":"Uttar Pradesh","pincode":"212601","latitude":"25.91634","longitude":"80.80378"},
    {"name":"Aman Service Center","address":"Station Road, Peeranpur, Fatehpur 212601, Uttar Pradesh","district":"Fatehpur","state":"Uttar Pradesh","pincode":"212601","latitude":"25.92583","longitude":"80.81583"},
    {"name":"Goyal Crockery","address":"Agra Kanpur Road, Firozabad 283203, Uttar Pradesh","district":"Firozabad","state":"Uttar Pradesh","pincode":"283203","latitude":"27.15859","longitude":"78.39434"},
    {"name":"Tushar Home Appliances","address":"Kotla Road, Firozabad 283203, Uttar Pradesh","district":"Firozabad","state":"Uttar Pradesh","pincode":"283203","latitude":"27.15226","longitude":"78.39633"},
    {"name":"RK Kitchen Store","address":"Gaya Sherghati Road, Chandau, Gaya 823001, Bihar","district":"Gaya","state":"Bihar","pincode":"823001","latitude":"24.78149","longitude":"84.98541"},
    {"name":"A P Home Wear","address":"Buxidih Road, Bhandaridih, Giridih 815301, Jharkhand","district":"Giridih","state":"Jharkhand","pincode":"815301","latitude":"24.1865","longitude":"86.30484"},
    {"name":"Maa Mathurasini Home Wear","address":"Giridih Main Road, Bhandaridih, Giridih 815301, Jharkhand","district":"Giridih","state":"Jharkhand","pincode":"815301","latitude":"24.18649","longitude":"86.30608"},
    {"name":"Aadi Shakti All Home Utensils","address":"Buxidih Road, Bhandaridih, Giridih 815301, Jharkhand","district":"Giridih","state":"Jharkhand","pincode":"815301","latitude":"24.1861","longitude":"86.30494"},
    {"name":"Kitchen House","address":"Station Road, Jai Prakash Nagar, Giridih 815301, Jharkhand","district":"Giridih","state":"Jharkhand","pincode":"815301","latitude":"24.1842","longitude":"86.30815"},
    {"name":"Shankar Crockery House","address":"Makatpur Road, New Barganda, Giridih 815301, Jharkhand","district":"Giridih","state":"Jharkhand","pincode":"815301","latitude":"24.18612","longitude":"86.30712"},
    {"name":"Baba Crockery and Gift House","address":"Makatpur Road, Jai Prakash Nagar, Giridih 815301, Jharkhand","district":"Giridih","state":"Jharkhand","pincode":"815301","latitude":"24.18657","longitude":"86.30851"},
    {"name":"R H Metal","address":"Giridih Main Road, Rajendra Nagar, Giridih 815301, Jharkhand","district":"Giridih","state":"Jharkhand","pincode":"815301","latitude":"24.18155","longitude":"86.30947"},
    {"name":"Plastic Ki Duniya","address":"Jamtara Godda Road, Axis Bank Godda Branch, Godda 814133, Jharkhand","district":"Godda","state":"Jharkhand","pincode":"814133","latitude":"24.82638","longitude":"87.21373"},
    {"name":"M S Gayatri Enterprises","address":"Deoghar Colgong Road, Godda 814133, Jharkhand","district":"Godda","state":"Jharkhand","pincode":"814133","latitude":"24.83043","longitude":"87.21509"},
    {"name":"Ansika Home Center","address":"Guddumal Chauraha, Malviya Nagar, Patel Nagar, Gonda 271001, Uttar Pradesh","district":"Gonda","state":"Uttar Pradesh","pincode":"271001","latitude":"27.1337","longitude":"81.96464"},
    {"name":"Hariom Home Appliances","address":"Utraula Road, Patel Nagar, Gonda 271003, Uttar Pradesh","district":"Gonda","state":"Uttar Pradesh","pincode":"271003","latitude":"27.13314","longitude":"81.96479"},
    {"name":"Crockery House","address":"Chowk Bazar Road, Malviya Nagar, Gonda 271001, Uttar Pradesh","district":"Gonda","state":"Uttar Pradesh","pincode":"271001","latitude":"27.13082","longitude":"81.96578"},
    {"name":"Nisha Crockery House","address":"Idgah, Malviya Nagar, Patel Nagar, Gonda 271001, Uttar Pradesh","district":"Gonda","state":"Uttar Pradesh","pincode":"271001","latitude":"27.13422","longitude":"81.96482"},
    {"name":"Balaji Homes","address":"Dharmshala Bazaar Road, Sumer Sagar, Hazaripur, Gorakhpur 273001, Uttar Pradesh","district":"Gorakhpur","state":"Uttar Pradesh","pincode":"273001","latitude":"26.75855","longitude":"83.36955"},
    {"name":"Moti Kitchen House","address":"Gorakhnath Road, Digvijay Nagar, Gorakhpur 273001, Uttar Pradesh","district":"Gorakhpur","state":"Uttar Pradesh","pincode":"273001","latitude":"26.77073","longitude":"83.35821"},
    {"name":"Modern Kitchen House","address":"Gorakhnath Road, Digvijay Nagar, Gorakhpur 273001, Uttar Pradesh","district":"Gorakhpur","state":"Uttar Pradesh","pincode":"273001","latitude":"26.77107","longitude":"83.35837"},
    {"name":"AR Kitchen House","address":"Gorakhnath Road, Surajkund, Gorakhpur 273001, Uttar Pradesh","district":"Gorakhpur","state":"Uttar Pradesh","pincode":"273001","latitude":"26.77105","longitude":"83.35813"},
    {"name":"Vishwakarma Repairing Center","address":"Hadahawa Fatak Road, Digvijay Nagar, Gorakhpur 273001, Uttar Pradesh","district":"Gorakhpur","state":"Uttar Pradesh","pincode":"273001","latitude":"26.76554","longitude":"83.36585"},
    {"name":"Shreya Enterprises","address":"Gorakhnath Road, Ali Nagar, Gorakhpur 273001, Uttar Pradesh","district":"Gorakhpur","state":"Uttar Pradesh","pincode":"273001","latitude":"26.76364","longitude":"83.36385"},
    {"name":"Om Enterprises","address":"Gorakhnath Road, Ali Nagar, Gorakhpur 273001, Uttar Pradesh","district":"Gorakhpur","state":"Uttar Pradesh","pincode":"273001","latitude":"26.76353","longitude":"83.36387"},
    {"name":"Mahalaxmi Kitchen Wear House","address":"Golghar Park Road, Ali Nagar, Gorakhpur 273001, Uttar Pradesh","district":"Gorakhpur","state":"Uttar Pradesh","pincode":"273001","latitude":"26.75826","longitude":"83.362"},
    {"name":"Anmol Services","address":"Cinema Road, Jaat Shankar Chowk, Hazaripur, Gorakhpur 273001, Uttar Pradesh","district":"Gorakhpur","state":"Uttar Pradesh","pincode":"273001","latitude":"26.7604","longitude":"83.36653"},
    {"name":"Survey Market","address":"Gumla Link Road, Gumla 835207, Jharkhand","district":"Gumla","state":"Jharkhand","pincode":"835207","latitude":"23.04997","longitude":"84.5415"},
    {"name":"Shree Balaji Sales","address":"NH-43, Islampur, Gumla 835207, Jharkhand","district":"Gumla","state":"Jharkhand","pincode":"835207","latitude":"23.04154","longitude":"84.54056"},
    {"name":"Ma Ambika Enterprises","address":"Jadhua Road, Nakhas Chowk, Anwarpur Bihar, Samta Colony, Hajipur 844101, Bihar","district":"Vaishali","state":"Bihar","pincode":"844101","latitude":"25.67941","longitude":"85.22143"},
    {"name":"Bhupendra Kitchen Households","address":"Bagla College Road, Shree Keshav Bhagwan Mandir, Gurhai Bazar, Dakpura, Hathrasi 204101, Uttar Pradesh","district":"Hathrasi","state":"Uttar Pradesh","pincode":"204101","latitude":"27.59294","longitude":"78.0507"},
    {"name":"Sri Ram Home Needs","address":"Rajendra Nagar Road, Bansilal Nagar, Hyderabad 500048, Telangana","district":"Hyderabad","state":"Telangana","pincode":"500048","latitude":"17.33652","longitude":"78.41076"},
    {"name":"Navkar Enterprises","address":"Tellapur Road, Komaram Bheem Colony, Hyderabad 500019, Telangana","district":"Hyderabad","state":"Telangana","pincode":"500019","latitude":"17.47244","longitude":"78.29383"},
    {"name":"Pooja Plastic & Steel Sales & Services","address":"Tellapur Road, Komaram Bheem Colony, Hyderabad 500019, Telangana","district":"Hyderabad","state":"Telangana","pincode":"500019","latitude":"17.47225","longitude":"78.29328"},
    {"name":"Mahalakshmi Steel & Plastic","address":"Indranagar Colony Road, Serilingampally, Hyderabad 500019, Telangana","district":"Hyderabad","state":"Telangana","pincode":"500019","latitude":"17.47239","longitude":"78.2927"},
    {"name":"Lakshmi Venkateswara Home Needs","address":"Market Road, Ashok Nagar, Patancheru 502319, Telangana","district":"Sangareddy","state":"Telangana","pincode":"502319","latitude":"17.53085","longitude":"78.26113"},
    {"name":"Sivvani Enterprises","address":"Uppal Road, LB Nagar, Hyderabad 500074, Telangana","district":"Hyderabad","state":"Telangana","pincode":"500074","latitude":"17.36061","longitude":"78.55757"},
    {"name":"Shiva Priya Enterprises","address":"Uppal Road, LB Nagar, Hyderabad 500074, Telangana","district":"Hyderabad","state":"Telangana","pincode":"500074","latitude":"17.36053","longitude":"78.55756"},
    {"name":"Balaji Enterprises","address":"Uppal Road, LB Nagar, Hyderabad 500074, Telangana","district":"Hyderabad","state":"Telangana","pincode":"500074","latitude":"17.36106","longitude":"78.55751"},
    {"name":"Ramanya Enterprises","address":"Uppal Road, Sainagar, Hyderabad 500068, Telangana","district":"Hyderabad","state":"Telangana","pincode":"500068","latitude":"17.36275","longitude":"78.55781"},
    {"name":"Shahari Enterprises","address":"Uppal Road, Good Residential Colony, Hyderabad 500068, Telangana","district":"Hyderabad","state":"Telangana","pincode":"500068","latitude":"17.36779","longitude":"78.5575"},
    {"name":"Uday Traders","address":"Uppal Road, Good Residential Colony, Hyderabad 500068, Telangana","district":"Hyderabad","state":"Telangana","pincode":"500068","latitude":"17.36592","longitude":"78.55749"},
    {"name":"Jyothi Interiors","address":"Uppal Road, Good Residential Colony, Hyderabad 500068, Telangana","district":"Hyderabad","state":"Telangana","pincode":"500068","latitude":"17.36826","longitude":"78.55759"},
    {"name":"Balaji Home Appliances","address":"Alkapuri Colony Road, Sri Rama Krishna Puram, Hyderabad 500035, Telangana","district":"Hyderabad","state":"Telangana","pincode":"500035","latitude":"17.36526","longitude":"78.55343"},
    {"name":"Zee Home Needs","address":"Noor Khan Bazar Road, Noor Khan Bazar, Hyderabad 500024, Telangana","district":"Hyderabad","state":"Telangana","pincode":"500024","latitude":"17.37086","longitude":"78.488"},
    {"name":"J S Bazar Homeneeds Crockery Gifts And Novelties","address":"Hakimpet Road, Janki Nagar Colony, Hyderabad 500004, Telangana","district":"Hyderabad","state":"Telangana","pincode":"500004","latitude":"17.40173","longitude":"78.41736"},
    {"name":"M/S Mar Enterprises","address":"Mumbai Road, Rahul Colony, Hyderabad 500008, Telangana","district":"Hyderabad","state":"Telangana","pincode":"500008","latitude":"17.40421","longitude":"78.40709"},
    {"name":"Kitchen Needs-Gilma Showroom","address":"1, Yadav Nagar Road 1, Ramkrishnapuram, Hyderabad 500035, Telangana","district":"Hyderabad","state":"Telangana","pincode":"500035","latitude":"17.36419","longitude":"78.55669"},
    {"name":"Cooker House","address":"Straight Mile Road, Sakchi, Jamshedpur 831001, Jharkhand","district":"Jamshedpur","state":"Jharkhand","pincode":"831001","latitude":"22.8041","longitude":"86.20418"},
    {"name":"Build Zone","address":"New Kalimati Road, Sakchi, Jamshedpur 831001, Jharkhand","district":"Jamshedpur","state":"Jharkhand","pincode":"831001","latitude":"22.80176","longitude":"86.20693"},
    {"name":"Bhawani Homemade","address":"Govt Junior College Road, Rto Office, Jangaon 506167, Telangana","district":"Jangaon","state":"Telangana","pincode":"506167","latitude":"17.72695","longitude":"79.17209"},
    {"name":"Raghu Traders","address":"Suryapet Road, Jangaon 506167, Telangana","district":"Jangaon","state":"Telangana","pincode":"506167","latitude":"17.71782","longitude":"79.167"},
    {"name":"Nisha Ladies Corner Crockery Sharda Gift Back Collection","address":"Station Road, Kotwali Chauraha, Rizwikhan, Rizvi Khan, Jaunpur 222001, Uttar Pradesh","district":"Jaunpur","state":"Uttar Pradesh","pincode":"222001","latitude":"25.75312","longitude":"82.69058"},
    {"name":"Jogesh Bartan House","address":"Main Nichli Road, Punjab National Bank Atm, Main Market, Daulatpur Phase 2, Jehanabad 804408, Bihar","district":"Jehanabad","state":"Bihar","pincode":"804408","latitude":"25.21341","longitude":"84.98886"},
    {"name":"Glamour Bartan House","address":"Main Nichli Road, Our Own English School, Main Market, Daulatpur Phase 2, Jehanabad 804408, Bihar","district":"Jehanabad","state":"Bihar","pincode":"804408","latitude":"25.21315","longitude":"84.98892"},
    {"name":"Kamlesh Crockery House","address":"Patna Gaya Road, Daulatpur Phase 2, Jehanabad 804408, Bihar","district":"Jehanabad","state":"Bihar","pincode":"804408","latitude":"25.21224","longitude":"84.98729"},
    {"name":"Soni Bartan House","address":"Hospital Road, Sabzi Mandi More, Sabzi Market, Daulatpur Phase 2, Jehanabad 804408, Bihar","district":"Jehanabad","state":"Bihar","pincode":"804408","latitude":"25.21112","longitude":"84.98704"},
    {"name":"Pappu Crockery House","address":"West Untta PG Road, Daulatpur, Jehanabad 804408, Bihar","district":"Jehanabad","state":"Bihar","pincode":"804408","latitude":"25.213","longitude":"84.9838"},
    {"name":"Pooja Light Pandal and Crockery","address":"Fida Hussain Road, Mallahchak More, Mallahchak, Daulatpur Phase 2, Jehanabad 804408, Bihar","district":"Jehanabad","state":"Bihar","pincode":"804408","latitude":"25.21593","longitude":"84.99168"},
    {"name":"New Rakesh Steel","address":"Main Nichli Road, Radha Krishna Temple, Main Market, Daulatpur Phase 2, Jehanabad 804408, Bihar","district":"Jehanabad","state":"Bihar","pincode":"804408","latitude":"25.21418","longitude":"84.98962"},
    {"name":"Raja Ji Brooms and Plastic Shop","address":"Main Nichli Road, Our Own English School, Main Market, Daulatpur Phase 2, Jehanabad 804408, Bihar","district":"Jehanabad","state":"Bihar","pincode":"804408","latitude":"25.21323","longitude":"84.98896"},
    {"name":"Ghar Sansar","address":"Main Nichli Road, Our Own English School, Main Market, Daulatpur Phase 2, Jehanabad 804408, Bihar","district":"Jehanabad","state":"Bihar","pincode":"804408","latitude":"25.21318","longitude":"84.98893"},
    {"name":"M/S Singhania Trades","address":"NH-22, Daulatpur Phase 2, Jehanabad 804408, Bihar","district":"Jehanabad","state":"Bihar","pincode":"804408","latitude":"25.21298","longitude":"84.98548"},
    {"name":"Guruji Crockery House","address":"Collectoriate Road, Sanhauli, Jalkoura, Khagaria 851205, Bihar","district":"Khagaria","state":"Bihar","pincode":"851205","latitude":"25.50722","longitude":"86.4732"},
    {"name":"Jed Steel Works","address":"Nagar Palika Road, Bank Of India Khagaria, Jalkoura, Khagaria 851204, Bihar","district":"Khagaria","state":"Bihar","pincode":"851204","latitude":"25.50472","longitude":"86.46924"},
    {"name":"Kitchen Palace","address":"Thana Road, State Bank Of India Khagaria Bazar, Jalkoura, Khagaria 851204, Bihar","district":"Khagaria","state":"Bihar","pincode":"851204","latitude":"25.50313","longitude":"86.47028"},
    {"name":"Steel Palace","address":"Main Road, Arya Kanya High School, Jalkoura, Khagaria 851204, Bihar","district":"Khagaria","state":"Bihar","pincode":"851204","latitude":"25.50177","longitude":"86.46788"},
    {"name":"Mahi Light General Store","address":"Nagar Palika Road, Bank Of India Khagaria, Jalkoura, Khagaria 851204, Bihar","district":"Khagaria","state":"Bihar","pincode":"851204","latitude":"25.50453","longitude":"86.46924"},
    {"name":"Kitchen King","address":"Thana Road, State Bank Of India Khagaria Bazar, Jalkoura, Khagaria 851204, Bihar","district":"Khagaria","state":"Bihar","pincode":"851204","latitude":"25.50308","longitude":"86.47005"},
    {"name":"Sone Lal Hira Lal Bartan Dokan","address":"Main Road, Indian Overseas Bank Khagaria, Jalkoura, Khagaria 851204, Bihar","district":"Khagaria","state":"Bihar","pincode":"851204","latitude":"25.50174","longitude":"86.46659"},
    {"name":"Ambika Agencies","address":"Amala Kutir Road, Hotel Koraput Inn, Koraput 764020, Odisha","district":"Koraput","state":"Odisha","pincode":"764020","latitude":"18.81176","longitude":"82.7109"},
    {"name":"Shiva Enterprise","address":"Amala Kutir Road, Jagannath Mandir Chowk, Koraput 764020, Odisha","district":"Koraput","state":"Odisha","pincode":"764020","latitude":"18.81147","longitude":"82.71098"},
    {"name":"Bankeswari Metal Shop","address":"Amala Kutir Road, Aftab Paris Tower, Puchilata, Koraput 764020, Odisha","district":"Koraput","state":"Odisha","pincode":"764020","latitude":"18.81283","longitude":"82.71128"},
    {"name":"Shree Krishna Kakri House","address":"SH-18, Lakhisarai, Sadar Lakhisarai 811310, Bihar","district":"Lakhisarai","state":"Bihar","pincode":"811310","latitude":"25.1633","longitude":"86.09732"},
    {"name":"Bahatpuria Bartan Bhandar","address":"Shekhpura Lakhisarai Road, Gyan Lok Public School, Lakhisarai, Sadar Lakhisarai 811311, Bihar","district":"Lakhisarai","state":"Bihar","pincode":"811311","latitude":"25.16844","longitude":"86.09268"},
    {"name":"Maa Kunti Kitchen Parts","address":"Lakhisarai Gurudwara, Lakhisarai, Sadar Lakhisarai 811311, Bihar","district":"Lakhisarai","state":"Bihar","pincode":"811311","latitude":"25.17049","longitude":"86.09232"},
    {"name":"Shri Ram Kitchan House","address":"Maharaj Agresen Marg, Mohibullapur, Lucknow 226020, Uttar Pradesh","district":"Lucknow","state":"Uttar Pradesh","pincode":"226020","latitude":"26.9067","longitude":"80.9272"},
    {"name":"Avadh Kitchen Store","address":"Maharaj Agresen Marg, Mohibullapur, Lucknow 226020, Uttar Pradesh","district":"Lucknow","state":"Uttar Pradesh","pincode":"226020","latitude":"26.9067","longitude":"80.9271"},
    {"name":"Jitender Kitchen Store","address":"Main Market Road, Adarsh Nagar, Madhubani 847211, Bihar","district":"Madhubani","state":"Bihar","pincode":"847211","latitude":"26.34861","longitude":"86.07125"},
    {"name":"Bambam Kitchen Store","address":"Main Market Road, Chitragupta Nagar, Madhubani 847211, Bihar","district":"Madhubani","state":"Bihar","pincode":"847211","latitude":"26.34851","longitude":"86.07106"},
    {"name":"Pammi Kitchen Store","address":"Milian Cenima Road, Chitragupta Nagar, Madhubani 847211, Bihar","district":"Madhubani","state":"Bihar","pincode":"847211","latitude":"26.34841","longitude":"86.07099"},
    {"name":"Arun Kitchen House","address":"Loha Patti Road, Chitragupta Nagar, Madhubani 847211, Bihar","district":"Madhubani","state":"Bihar","pincode":"847211","latitude":"26.35153","longitude":"86.06984"},
    {"name":"M D Alli Kitchen Store","address":"Main Market Road, Darule Ullum Anwar Raja Madarsa, Adarsh Nagar, Madhubani 847211, Bihar","district":"Madhubani","state":"Bihar","pincode":"847211","latitude":"26.35565","longitude":"86.07081"},
    {"name":"Laxmi And Co Kitchen Centre","address":"Main Market Road, Chitragupta Nagar, Madhubani 847211, Bihar","district":"Madhubani","state":"Bihar","pincode":"847211","latitude":"26.35088","longitude":"86.07049"},
    {"name":"Sri Venkateswara Metal Merchants","address":"NH365, Mahabubabad 506101, Telangana","district":"Mahabubabad","state":"Telangana","pincode":"506101","latitude":"17.59749","longitude":"80.00165"},
    {"name":"Vijayalaxmi Metal Merchants","address":"NH365, Mahabubabad 506101, Telangana","district":"Mahabubabad","state":"Telangana","pincode":"506101","latitude":"17.59734","longitude":"80.00183"},
    {"name":"Boddupelli Janardhan Steel General Store","address":"NH365, Mahabubabad 506101, Telangana","district":"Mahabubabad","state":"Telangana","pincode":"506101","latitude":"17.59813","longitude":"80.00181"},
    {"name":"Male Nageswarao Steel General Store","address":"NH365, Mahabubabad 506101, Telangana","district":"Mahabubabad","state":"Telangana","pincode":"506101","latitude":"17.59717","longitude":"80.00233"},
    {"name":"Sri Vasavi Trader","address":"NH365, Mahabubabad 506101, Telangana","district":"Mahabubabad","state":"Telangana","pincode":"506101","latitude":"17.59837","longitude":"80.0019"},
    {"name":"Sri Bajarang Steel Home Needs","address":"NH365, Mahabubabad 506101, Telangana","district":"Mahabubabad","state":"Telangana","pincode":"506101","latitude":"17.59864","longitude":"80.00198"},
    {"name":"Narendra Home Needs Enterprises","address":"Nehru Centre Road, Mahabubabad 506101, Telangana","district":"Mahabubabad","state":"Telangana","pincode":"506101","latitude":"17.5964","longitude":"79.99834"},
    {"name":"Nageswari Rao Steel House","address":"NH365, Mahabubabad 506101, Telangana","district":"Mahabubabad","state":"Telangana","pincode":"506101","latitude":"17.59885","longitude":"80.00188"},
    {"name":"Dinesh Traders","address":"Mathura UP Border Road, Mathura 281001, Uttar Pradesh","district":"Mathura","state":"Uttar Pradesh","pincode":"281001","latitude":"27.49999","longitude":"77.66706"},
    {"name":"Haimavathi Home Needs","address":"Jn Road, Shivaji Statue, Pagidimari, Medak 502110, Telangana","district":"Medak","state":"Telangana","pincode":"502110","latitude":"18.04636","longitude":"78.26236"},
    {"name":"Balaji Home Needs","address":"Medak Jogipet Road, Medak 502110, Telangana","district":"Medak","state":"Telangana","pincode":"502110","latitude":"18.04522","longitude":"78.26261"},
    {"name":"Srinivasa Home Needs","address":"Chaman Road, Shivaji Statue, Arabgalli, Medak 502110, Telangana","district":"Medak","state":"Telangana","pincode":"502110","latitude":"18.04692","longitude":"78.261"},
    {"name":"Maruthi Home Needs","address":"Medak Jogipet Road, Medak 502110, Telangana","district":"Medak","state":"Telangana","pincode":"502110","latitude":"18.04339","longitude":"78.26173"},
    {"name":"Sri Durga Home Needs","address":"Pagidimari Road, Shivaji Statue, Pagidimari, Medak 502110, Telangana","district":"Medak","state":"Telangana","pincode":"502110","latitude":"18.04633","longitude":"78.26101"},
    {"name":"Kamal Steel House","address":"Medak Jogipet Road, Medak 502110, Telangana","district":"Medak","state":"Telangana","pincode":"502110","latitude":"18.04501","longitude":"78.26257"},
    {"name":"Nageshwar Steel House","address":"Jn Road, Shivaji Statue, Pagidimari, Medak 502110, Telangana","district":"Medak","state":"Telangana","pincode":"502110","latitude":"18.04655","longitude":"78.26124"},
    {"name":"Shiva Steel & General Store","address":"Market Yard Nawabpet Road, Potti Sri Ramulu Statue, Arabgalli, Medak 502110, Telangana","district":"Medak","state":"Telangana","pincode":"502110","latitude":"18.04688","longitude":"78.26053"},
    {"name":"Home Choice","address":"Main Road Chhatauni, Subhash Park, Mina Bazzar Motihari, Hasina Chawk, Motihari 845401, Bihar","district":"Purbi Champaran","state":"Bihar","pincode":"845401","latitude":"26.656","longitude":"84.91846"},
    {"name":"Bharat Crocry House","address":"Bank Road, Chatauni, Motihari 845401, Bihar","district":"Purbi Champaran","state":"Bihar","pincode":"845401","latitude":"26.65257","longitude":"84.92097"},
    {"name":"Kitchen House","address":"Hospital Road, Belisarai, Motihari 845401, Bihar","district":"Purbi Champaran","state":"Bihar","pincode":"845401","latitude":"26.64659","longitude":"84.90998"},
    {"name":"Shree Ram Steel House","address":"Panch Mandir Road, Hasina Chawk, Motihari 845401, Bihar","district":"Purbi Champaran","state":"Bihar","pincode":"845401","latitude":"26.65666","longitude":"84.91863"},
    {"name":"Steel Emporium Crocrkery World","address":"Main Road, Hasina Chawk, Motihari 845401, Bihar","district":"Purbi Champaran","state":"Bihar","pincode":"845401","latitude":"26.65593","longitude":"84.91851"},
    {"name":"Chandan Submersible Service Centre","address":"Neelam Path, Monghyr, Jamalpur 811201, Bihar","district":"Munger","state":"Bihar","pincode":"811201","latitude":"25.3788","longitude":"86.4772"},
    {"name":"Siddhi Vinayak Enterprises","address":"Gola Road, Bekapur, Jamalpur 811201, Bihar","district":"Munger","state":"Bihar","pincode":"811201","latitude":"25.37578","longitude":"86.47478"},
    {"name":"Creative Kitchen General Store","address":"Sri Krishna Road, Munger Fort Area, Jamalpur 811201, Bihar","district":"Munger","state":"Bihar","pincode":"811201","latitude":"25.37114","longitude":"86.46912"},
    {"name":"M K Enterprises","address":"Gola Road, Bekapur, Jamalpur 811201, Bihar","district":"Munger","state":"Bihar","pincode":"811201","latitude":"25.37461","longitude":"86.47499"},
    {"name":"Kitchen King","address":"Chowk Bazar Road, Bekapur, Jamalpur 811201, Bihar","district":"Munger","state":"Bihar","pincode":"811201","latitude":"25.37771","longitude":"86.4735"},
    {"name":"Life Style Crockery And Steel Palace","address":"Mahaveer Medical Market Road, RTC Colony, Nalgonda 528013, Telangana","district":"Nalgonda","state":"Telangana","pincode":"528013","latitude":"17.05349","longitude":"79.26609"},
    {"name":"Om Shanti Enterprises","address":"Konark Road, New Cycle Store, Nuapatna, Saradhabali, Puri 752002, Odisha","district":"Puri","state":"Odisha","pincode":"752002","latitude":"19.81323","longitude":"85.8319"},
    {"name":"Sayashi Enterprises","address":"Bada Danda Road, Medical Officer Puri, Nuapatna, Pathuria Sahi, Puri 752001, Odisha","district":"Puri","state":"Odisha","pincode":"752001","latitude":"19.81278","longitude":"85.83049"},
    {"name":"Gupta Bartan House","address":"Malikmaoo Road, Amresh Puri Colony, Raebareli 229001, Uttar Pradesh","district":"Raebareli","state":"Uttar Pradesh","pincode":"229001","latitude":"26.22825","longitude":"81.23628"},
    {"name":"M/S Trading Company","address":"Malikmaoo Road, Guru Nanak Nagar, Raebareli 229001, Uttar Pradesh","district":"Raebareli","state":"Uttar Pradesh","pincode":"229001","latitude":"26.22514","longitude":"81.24811"},
    {"name":"RG Trading Co","address":"Milan Cinema Road, Amresh Puri Colony, Raebareli 229001, Uttar Pradesh","district":"Raebareli","state":"Uttar Pradesh","pincode":"229001","latitude":"26.22759","longitude":"81.23558"},
    {"name":"Sai Luminous","address":"Bariatu Road, Jay Prakash Nagar, Ranchi 834009, Jharkhand","district":"Ranchi","state":"Jharkhand","pincode":"834009","latitude":"23.39992","longitude":"85.37411"},
    {"name":"Classic Crockery House","address":"Ratu Road, Kumhartoli, Piska More, Ranchi 834005, Jharkhand","district":"Ranchi","state":"Jharkhand","pincode":"834005","latitude":"23.39622","longitude":"85.30393"},
    {"name":"Bharat Kitchen House And Bartan Dukan","address":"HB Road, Jay Prakash Nagar, Ranchi 834009, Jharkhand","district":"Ranchi","state":"Jharkhand","pincode":"834009","latitude":"23.39354","longitude":"85.38225"},
    {"name":"Payal Bartan House","address":"Pundag Road, Dav Alok Public School, Sahu Chowk, Nagri 834004, Jharkhand","district":"Ranchi","state":"Jharkhand","pincode":"834004","latitude":"23.34807","longitude":"85.2806"},
    {"name":"Ansu Kitchen Service","address":"Kathal More Road, Undag, Ranchi 834002, Jharkhand","district":"Ranchi","state":"Jharkhand","pincode":"834002","latitude":"23.35454","longitude":"85.28401"},
    {"name":"New Kitchen King","address":"Kanke Road, Karamtoli, Ranchi 834008, Jharkhand","district":"Ranchi","state":"Jharkhand","pincode":"834008","latitude":"23.39414","longitude":"85.31433"},
    {"name":"Happy Home","address":"Mahanti Para Road, Bijay Screen & Offset, Jhaduapada, Gol Bazar, Sambalpur 768001, Odisha","district":"Sambalpur","state":"Odisha","pincode":"768001","latitude":"21.46667","longitude":"83.96981"},
    {"name":"Vijay Home Appliance","address":"VSS Marg, Dehrapali, Sambalpur 768002, Odisha","district":"Sambalpur","state":"Odisha","pincode":"768002","latitude":"21.46549","longitude":"83.97891"},
    {"name":"Ideal Home Care","address":"Pushafaram Road, Punjabi Colony, Samastipur 848101, Bihar","district":"Samastipur","state":"Bihar","pincode":"848101","latitude":"25.86752","longitude":"85.77297"},
    {"name":"Alishan Crockery","address":"Samastipur Railway Station Road, Samastipur Railway Station, Samastipur 848101, Bihar","district":"Samastipur","state":"Bihar","pincode":"848101","latitude":"25.86309","longitude":"85.78232"},
    {"name":"Pooja Bartan Store","address":"Punjabi Colony Road, Green Medical Hall, Dharampur, Samastipur 848101, Bihar","district":"Samastipur","state":"Bihar","pincode":"848101","latitude":"25.86731","longitude":"85.77334"},
    {"name":"Om Sai Bartan Bhandar","address":"Punjabi Colony Road, Green Medical Hall, Punjab Colony, Samastipur 848101, Bihar","district":"Samastipur","state":"Bihar","pincode":"848101","latitude":"25.86703","longitude":"85.77393"},
    {"name":"Steel And Style","address":"Aarya Samaj Road, Gunesh Chowk, Gudari Bazar, Samastipur 848101, Bihar","district":"Samastipur","state":"Bihar","pincode":"848101","latitude":"25.86426","longitude":"85.78301"},
    {"name":"Mangalam Steel","address":"NH-43, Seraikela, Seraikella 833219, Jharkhand","district":"Saraikela Kharsawan","state":"Jharkhand","pincode":"833219","latitude":"22.70307","longitude":"85.92894"},
    {"name":"M S Baba Satguru Enterprises","address":"NH-43, Seraikela, Seraikella 833219, Jharkhand","district":"Saraikela Kharsawan","state":"Jharkhand","pincode":"833219","latitude":"22.70264","longitude":"85.93026"},
    {"name":"Kitchens Corner","address":"Ghazipur Hajipur Road, Shilpi Cinema Hall, Sadhapur, Dahiyawan Tola, Chhapra 841301, Bihar","district":"Saran","state":"Bihar","pincode":"841301","latitude":"25.78405","longitude":"84.74633"},
    {"name":"Janta Kitchens Corner","address":"Aazad Road, Katahari Bagh, Chhapra 841301, Bihar","district":"Saran","state":"Bihar","pincode":"841301","latitude":"25.77738","longitude":"84.75095"},
    {"name":"Dilip Crockery House","address":"Sandha Road, Chhapra Dhala, Chhapra 841301, Bihar","district":"Saran","state":"Bihar","pincode":"841301","latitude":"25.78414","longitude":"84.7491"},
    {"name":"As Am Steel House","address":"Ghazipur Hajipur Road, Salempur Masjid, Sadhapur, Dahiyawan Tola, Chhapra 841301, Bihar","district":"Saran","state":"Bihar","pincode":"841301","latitude":"25.78513","longitude":"84.74918"},
    {"name":"Satyam Enterprise","address":"Ghazipur Hajipur Road, Shilpi Cinema Hall, Sadhapur, Dahiyawan Tola, Chhapra 841301, Bihar","district":"Saran","state":"Bihar","pincode":"841301","latitude":"25.78364","longitude":"84.74621"},
    {"name":"Rashoi Ghar","address":"Ghazipur Hajipur Road, Shilpi Cinema Hall, Sadhapur, Dahiyawan Tola, Chhapra 841301, Bihar","district":"Saran","state":"Bihar","pincode":"841301","latitude":"25.78386","longitude":"84.74627"},
    {"name":"S K Enterprise","address":"Ghazipur Hajipur Road, Shilpi Cinema Hall, Sadhapur, Dahiyawan Tola, Chhapra 841301, Bihar","district":"Saran","state":"Bihar","pincode":"841301","latitude":"25.78395","longitude":"84.7463"},
    {"name":"Kitchen House","address":"Sitamarhi Main Road, Dr Alok Kumar Hospital, Malahi, Sitamarhi, Dumra 843301, Bihar","district":"Sitamarhi","state":"Bihar","pincode":"843301","latitude":"26.59413","longitude":"85.50172"},
    {"name":"Jay Mata Di Kitchen House","address":"NH-227, Sitamarhi, Dumra 843301, Bihar","district":"Sitamarhi","state":"Bihar","pincode":"843301","latitude":"26.59396","longitude":"85.49895"},
    {"name":"New Badal Steel Crockery","address":"Thana Road, Shaikh Muhalla, Siwan 841226, Bihar","district":"Siwan","state":"Bihar","pincode":"841226","latitude":"26.22127","longitude":"84.35821"},
    {"name":"New Kitchens House","address":"Thana Road, Shaikh Muhalla, Siwan 841226, Bihar","district":"Siwan","state":"Bihar","pincode":"841226","latitude":"26.21995","longitude":"84.35823"},
    {"name":"Ashok Chulah Ghar","address":"Bari Masjid, Jai Prakash Nagar, Naya Quila, Siwan 841226, Bihar","district":"Siwan","state":"Bihar","pincode":"841226","latitude":"26.22003","longitude":"84.3569"},
    {"name":"New Prakash Enterprises","address":"Bari Masjid, Jai Prakash Nagar, Naya Quila, Siwan 841226, Bihar","district":"Siwan","state":"Bihar","pincode":"841226","latitude":"26.22016","longitude":"84.35721"},
    {"name":"Raj Traders","address":"Bye Pass Road, Baba Sweets, Arya Nagar, Robertganj, Robertsganj 231206, Uttar Pradesh","district":"Sonbhadra","state":"Uttar Pradesh","pincode":"231206","latitude":"24.68752","longitude":"83.06179"},
    {"name":"Sri Shyam Kitchen Center","address":"Bye Pass Road, Astha Hospital, Kriti Pali Nagar, Robertsganj 231216, Uttar Pradesh","district":"Sonbhadra","state":"Uttar Pradesh","pincode":"231216","latitude":"24.6877","longitude":"83.0625"},
    {"name":"Manish Trading Company","address":"Sheetla Mata Gali Road, Kabya Jewellers, Bhangwali, Robertsganj 231216, Uttar Pradesh","district":"Sonbhadra","state":"Uttar Pradesh","pincode":"231216","latitude":"24.69078","longitude":"83.06567"},
    {"name":"Saras Trading Company","address":"Robertsganj Main Road, Robertsganj 231216, Uttar Pradesh","district":"Sonbhadra","state":"Uttar Pradesh","pincode":"231216","latitude":"24.692","longitude":"83.06567"},
    {"name":"Paras And Company","address":"Dharam Shala Road, Robertsganj 231216, Uttar Pradesh","district":"Sonbhadra","state":"Uttar Pradesh","pincode":"231216","latitude":"24.69036","longitude":"83.06389"},
    {"name":"Ajay And Company","address":"Ramgadh Road, Barmhababa, Robertsganj 231216, Uttar Pradesh","district":"Sonbhadra","state":"Uttar Pradesh","pincode":"231216","latitude":"24.69022","longitude":"83.06437"},
    {"name":"D L G Trading Company","address":"Doctor Kahnyalal Marg, Robertsganj 231216, Uttar Pradesh","district":"Sonbhadra","state":"Uttar Pradesh","pincode":"231216","latitude":"24.68936","longitude":"83.06701"},
    {"name":"M K Trades","address":"Ghorawal Road, Robertsganj 231216, Uttar Pradesh","district":"Sonbhadra","state":"Uttar Pradesh","pincode":"231216","latitude":"24.69231","longitude":"83.06001"},
    {"name":"M S Traders","address":"Chopan To Robertganj Road, Allahabad Bank, Amarati, Robertganj, Robertsganj 231216, Uttar Pradesh","district":"Sonbhadra","state":"Uttar Pradesh","pincode":"231216","latitude":"24.68129","longitude":"83.06361"},
    {"name":"M S Enterprises","address":"Bye Pass Road, Ajay Patanjali, Robertganj, Robertsganj 231216, Uttar Pradesh","district":"Sonbhadra","state":"Uttar Pradesh","pincode":"231216","latitude":"24.68349","longitude":"83.06352"},
    {"name":"Mahindra Traders","address":"Chopan To Robertganj Road, V Bazzar, Amarati, Robertganj, Robertsganj 231216, Uttar Pradesh","district":"Sonbhadra","state":"Uttar Pradesh","pincode":"231216","latitude":"24.67999","longitude":"83.06337"},
    {"name":"Ravi Home Appliances","address":"MG Road, Vidya Nagar, Suryapet 528013, Telangana","district":"Suryapet","state":"Telangana","pincode":"528013","latitude":"17.1465","longitude":"79.62141"},
    {"name":"Madhu Gas And Home Needs","address":"MG Road, Vidya Nagar, Suryapet 528013, Telangana","district":"Suryapet","state":"Telangana","pincode":"528013","latitude":"17.14874","longitude":"79.62187"},
    {"name":"M Lalit Kumar Gupta Bartan Store","address":"Lucknow Road, Gandhi Nagar, Unnao 209801, Uttar Pradesh","district":"Unnao","state":"Uttar Pradesh","pincode":"209801","latitude":"26.54448","longitude":"80.48422"},
    {"name":"King Kitchen House","address":"Mahmoorganj Road, Prachin Shri Hanuman Mandir Gurudwara, Sigra, Shastri Nagar Colony, Varanasi 221001, Uttar Pradesh","district":"Varanasi","state":"Uttar Pradesh","pincode":"221001","latitude":"25.31576","longitude":"82.98911"}
    ]
    